City,Lat,Lng,Max Temp,Humidity,Wind Speed,Cloudiness,Country,Date
Hobart,-42.88,147.33,60.8,51,16.11,0,AU,1601635838
Lavrentiya,65.58,-171.0,40.46,94,10.16,100,RU,1601636119
Rikitea,-23.12,-134.97,72.54,81,19.13,0,PF,1601636121
Ullapool,57.9,-5.16,54.0,76,11.99,92,GB,1601636121
Hithadhoo,-0.6,73.08,84.24,65,5.35,80,MV,1601636122
Butaritari,3.07,172.79,80.38,69,15.95,5,KI,1601636123
Tuktoyaktuk,69.45,-133.04,36.88,95,4.56,91,CA,1601636123
Atuona,-9.8,-139.03,78.35,74,24.0,5,PF,1601636124
Punta Arenas,-53.15,-70.92,30.2,63,11.41,40,CL,1601635864
Fort-Shevchenko,44.51,50.26,70.88,29,11.86,2,KZ,1601636125
Tual,-5.67,132.75,81.21,76,21.99,61,ID,1601636127
Cape Town,-33.93,18.42,66.2,52,18.34,40,ZA,1601635945
Yellowknife,62.46,-114.35,37.99,93,3.36,75,CA,1601635983
Bloemfontein,-29.12,26.21,66.2,52,20.8,75,ZA,1601635973
Longyearbyen,78.22,15.64,32.0,92,8.05,75,SJ,1601636130
Hambantota,6.12,81.12,89.6,66,21.92,20,LK,1601636131
Havre-St-Pierre,50.23,-63.6,41.0,100,4.7,75,CA,1601636132
Laas,46.62,10.7,57.0,100,16.11,75,IT,1601636132
Morgan City,29.7,-91.21,60.8,72,5.82,1,US,1601636133
Tasiilaq,65.61,-37.64,37.4,69,29.97,75,GL,1601636134
Chokurdakh,70.63,147.92,27.84,99,5.23,100,RU,1601636134
Sampit,-2.53,112.95,80.4,81,4.85,61,ID,1601636135
Port Macquarie,-31.43,152.92,57.99,90,5.68,0,AU,1601636136
Atambua,-9.11,124.89,75.45,78,3.62,43,ID,1601636137
Batī,11.18,40.02,79.79,38,5.37,58,ET,1601636138
Mataura,-46.19,168.86,54.0,77,1.01,82,NZ,1601636139
Petropavlovsk-Kamchatskiy,53.05,158.65,44.6,100,4.47,76,RU,1601636140
Esperance,-33.87,121.9,53.6,100,8.05,90,AU,1601636140
Saint-Philippe,-21.36,55.77,77.0,73,9.17,90,RE,1601636141
Imbituba,-28.24,-48.67,75.2,78,14.99,1,BR,1601636142
College,64.86,-147.8,53.6,64,10.29,75,US,1601636143
Tuy Hoa,13.08,109.3,81.95,79,5.79,89,VN,1601636144
Port Alfred,-33.59,26.89,60.98,72,25.17,93,ZA,1601636144
Tura,25.52,90.22,81.14,84,0.83,98,IN,1601636145
Vao,-22.67,167.48,69.55,77,19.46,0,NC,1601636146
Ushuaia,-54.8,-68.3,32.0,90,27.51,75,AR,1601636089
Muroto-misakicho,33.28,134.15,73.4,73,3.36,75,JP,1601636147
Saint Paul Harbor,57.79,-152.41,51.8,87,25.28,90,US,1601636148
Rocha,-34.48,-54.33,51.13,70,15.97,0,UY,1601636149
Upernavik,72.79,-56.15,24.19,89,7.92,79,GL,1601636150
Teknāf,20.86,92.31,84.09,82,7.31,31,BD,1601636151
Bengkulu,-3.8,102.27,77.72,83,2.04,55,ID,1601636151
Egvekinot,66.32,-179.17,32.79,92,26.6,100,RU,1601636152
Gizo Government Station,-8.1,156.84,82.11,75,7.78,10,SB,1601636153
Angoche,-16.23,39.91,83.37,61,12.3,25,MZ,1601636154
Tuatapere,-46.13,167.68,54.0,77,1.01,81,NZ,1601636156
Clyde River,70.47,-68.59,28.4,92,16.11,90,CA,1601636156
Ugoofaaru,5.67,73.0,82.54,75,11.92,30,MV,1601636158
Beckley,37.78,-81.19,41.0,86,3.36,1,US,1601636158
Port Elizabeth,-33.92,25.57,62.6,63,18.34,75,ZA,1601636159
Prattville,32.46,-86.46,55.4,76,6.53,1,US,1601636160
Quesnel,53.0,-122.5,50.0,100,2.24,90,CA,1601636161
Coburg,50.27,10.97,66.0,63,3.0,99,DE,1601636162
Busselton,-33.65,115.33,51.01,49,12.77,3,AU,1601636164
Nyurba,63.28,118.33,28.89,90,5.53,38,RU,1601636165
Barrow,71.29,-156.79,33.8,95,12.75,90,US,1601636165
Sitka,57.05,-135.33,57.2,82,12.75,90,US,1601636067
Nhulunbuy,-12.23,136.77,78.8,65,9.17,3,AU,1601636167
Wukari,7.85,9.78,76.42,87,3.4,98,NG,1601636167
Dikson,73.51,80.55,35.46,82,22.3,100,RU,1601636168
Aksu,41.12,80.26,68.58,22,8.05,100,CN,1601636169
Puerto Ayora,-0.74,-90.35,66.99,88,8.01,88,EC,1601636170
Bethel,41.37,-73.41,55.4,87,6.38,90,US,1601636171
Coquimbo,-29.95,-71.34,46.4,87,3.36,2,CL,1601636172
Lorengau,-2.02,147.27,79.38,82,9.71,100,PG,1601636173
Geraldton,-28.77,114.6,60.8,63,16.11,90,AU,1601636173
Ampanihy,-24.7,44.75,90.54,26,13.98,10,MG,1601636175
Inhambane,-23.86,35.38,75.2,94,2.24,75,MZ,1601636175
Alofi,-19.06,-169.92,75.2,94,3.36,64,NU,1601636176
Nikolskoye,59.7,30.79,63.0,48,11.18,5,RU,1601636177
Klaksvík,62.23,-6.59,57.2,71,23.04,40,FO,1601636178
Ajdabiya,30.76,20.23,96.22,22,12.95,2,LY,1601636178
Ayan,56.45,138.17,48.88,62,3.44,72,RU,1601636179
Grand Gaube,-20.01,57.66,77.0,68,5.01,1,MU,1601636180
Rawlins,41.79,-107.24,51.8,23,10.58,1,US,1601636081
San Ignacio,17.16,-89.07,73.0,89,2.42,96,BZ,1601636181
Castro,-24.79,-50.01,78.75,48,6.2,72,BR,1601636182
Muhos,64.81,25.99,61.0,58,11.41,27,FI,1601636182
Kavaratti,10.57,72.64,81.82,73,9.86,100,IN,1601636183
Ribeira Grande,38.52,-28.7,69.8,68,3.36,75,PT,1601636185
São Filipe,14.9,-24.5,82.2,72,7.05,81,CV,1601636185
Marabu,4.41,114.01,84.2,79,4.7,20,MY,1601636186
Madridejos,39.47,-3.53,60.8,82,20.8,90,ES,1601636187
Vaini,-21.2,-175.2,73.4,83,11.41,75,TO,1601636187
Salamiyah,35.01,37.05,86.83,22,5.82,0,SY,1601636189
São João da Barra,-21.64,-41.05,75.2,88,13.87,0,BR,1601636189
Polewali,-3.43,119.34,81.25,73,5.88,41,ID,1601636190
Gravataí,-29.94,-50.99,68.0,100,2.24,90,BR,1601636191
Port-Gentil,-0.72,8.78,80.6,74,12.75,90,GA,1601636192
Koupéla,12.18,-0.35,85.77,58,12.97,31,BF,1601636193
Qaanaaq,77.48,-69.36,18.55,83,6.89,0,GL,1601636193
Sattahip,12.67,100.9,80.6,88,4.7,75,TH,1601636194
Redmond,47.67,-122.12,55.99,95,2.13,66,US,1601636053
Sandane,61.77,6.21,63.0,51,10.29,92,NO,1601636195
Puli,23.97,120.97,81.0,88,9.17,75,TW,1601636196
Santa Isabel,-23.32,-46.22,78.8,50,10.29,51,BR,1601636003
Jumla,29.27,82.18,60.01,97,5.28,21,NP,1601636198
Añisoc,1.87,10.77,81.09,78,1.19,85,GQ,1601636198
Kununurra,-15.77,128.73,86.0,62,5.77,97,AU,1601636199
Duekoué,6.75,-7.35,75.79,88,5.06,100,CI,1601636200
San Patricio,19.22,-104.7,76.24,80,4.43,0,MX,1601636201
Chui,-33.7,-53.46,55.78,78,19.84,0,UY,1601636202
Bambanglipuro,-7.95,110.28,79.07,84,7.02,35,ID,1601636202
Christchurch,-43.53,172.63,55.0,46,5.82,49,NZ,1601636203
Saskylakh,71.92,114.08,27.73,97,11.68,96,RU,1601636204
Guerrero Negro,27.98,-114.06,73.31,64,4.65,0,MX,1601636205
Warrington,53.39,-2.58,55.0,81,16.11,20,GB,1601636073
Rawson,-43.3,-65.1,38.7,70,18.81,33,AR,1601636206
Jamestown,42.1,-79.24,45.0,93,8.05,90,US,1601636207
Severo-Kuril'sk,50.68,156.12,47.52,87,14.09,28,RU,1601636207
Cidreira,-30.18,-50.21,66.78,93,5.21,92,BR,1601636208
Palmer,42.16,-72.33,55.0,93,2.95,90,US,1601636209
Faanui,-16.48,-151.75,78.46,78,18.92,81,PF,1601636209
Pimentel,-6.84,-79.93,61.21,88,8.7,81,PE,1601636210
Nanga Eboko,4.68,12.37,83.84,61,0.69,98,CM,1601636211
Poya,-21.35,165.15,67.39,76,9.33,1,NC,1601636212
Codrington,-38.27,141.97,67.37,67,12.59,18,AU,1601636213
Sabzawār,36.21,57.68,80.6,18,16.11,0,IR,1601636213
Lebu,-37.62,-73.65,43.57,82,13.91,6,CL,1601636214
Port Blair,11.67,92.75,80.71,84,16.24,100,IN,1601636215
Albany,42.6,-73.97,53.01,85,3.15,100,US,1601636215
Ostrovnoy,68.05,39.51,44.74,70,12.55,95,RU,1601636217
Eureka,40.8,-124.16,53.6,100,0.92,90,US,1601635924
Karratha,-20.74,116.85,81.36,34,15.73,87,AU,1601636220
Bluff,-46.6,168.33,54.0,77,1.01,97,NZ,1601636221
Horta,38.53,-28.63,69.8,68,3.36,75,PT,1601636155
Lüderitz,-26.65,15.16,63.05,53,12.12,0,NA,1601636222
Kahului,20.89,-156.47,82.4,69,13.87,1,US,1601636223
Sivaki,52.63,126.75,46.98,83,8.72,100,RU,1601636224
Rosarito,32.33,-117.03,75.2,25,3.24,5,MX,1601636224
Talnakh,69.49,88.4,35.6,100,4.47,90,RU,1601636225
Qingdao,36.1,120.37,66.99,52,8.95,100,CN,1601636226
Waipawa,-41.41,175.52,55.4,76,20.8,37,NZ,1601636226
Emerald,-23.53,148.17,78.8,34,6.93,0,AU,1601636227
Mahébourg,-20.41,57.7,78.8,65,6.93,75,MU,1601636229
Arraial do Cabo,-22.97,-42.03,75.2,88,9.17,27,BR,1601636229
Iberia,29.95,-91.75,59.0,87,5.82,1,US,1601636230
Carnarvon,-24.87,113.63,69.8,68,14.99,6,AU,1601636231
Vardø,70.37,31.11,44.6,70,5.82,75,NO,1601636031
Nur-Sultan,51.18,71.45,57.2,58,8.95,90,KZ,1601636233
Black River,18.03,-77.85,80.6,78,4.7,20,JM,1601636233
Cukai,4.25,103.42,84.2,83,2.24,40,MY,1601636234
Hervey Bay,-25.3,152.85,70.0,75,1.01,0,AU,1601636235
Talaya,61.38,152.75,33.51,89,0.45,23,RU,1601636236
Khovu-Aksy,51.13,93.6,30.65,80,3.31,34,RU,1601636236
Artsvanist,40.15,45.5,64.27,42,12.75,37,AM,1601636237
Bowen,-20.02,148.23,69.8,83,4.7,40,AU,1601636073
Coria,39.99,-6.54,64.0,63,15.99,99,ES,1601636239
Mareeba,-17.0,145.43,75.2,69,14.99,40,AU,1601636240
Kaitangata,-46.28,169.85,53.01,58,5.01,100,NZ,1601636240
Trat,12.5,102.5,79.25,91,4.07,100,TH,1601636241
Comodoro Rivadavia,-45.87,-67.5,30.2,68,6.93,20,AR,1601636242
Nadezhda,44.1,44.6,73.44,46,17.13,94,RU,1601636242
Avarua,-21.21,-159.78,71.6,100,4.7,1,CK,1601636243
Kiunga,-6.12,141.29,72.19,96,3.69,100,PG,1601636244
Lompoc,34.64,-120.46,64.4,62,3.36,1,US,1601636244
Iqaluit,63.75,-68.51,28.4,74,11.41,75,CA,1601636245
Zhezkazgan,47.8,67.71,62.6,23,11.18,35,KZ,1601636246
Tabuk,17.42,121.44,76.1,87,6.93,59,PH,1601636247
Kumul,42.8,93.45,58.19,28,3.29,38,CN,1601636247
Saint-Paul,-21.01,55.27,77.0,65,9.17,90,RE,1601636248
Hilo,19.73,-155.09,75.2,83,7.23,1,US,1601635964
Kisangani,0.52,25.2,78.8,78,9.17,75,CD,1601636250
East London,-33.02,27.91,60.8,87,17.22,75,ZA,1601636250
Batagay-Alyta,67.8,130.41,25.2,82,10.31,99,RU,1601636251
Chimbote,-9.09,-78.58,60.67,88,4.83,88,PE,1601636252
Calamar,10.25,-74.91,74.86,93,3.42,100,CO,1601636253
Halberstadt,51.9,11.05,63.0,67,13.0,84,DE,1601636253
Lakatoro,-16.1,167.42,78.33,78,6.96,98,VU,1601636255
Cherskiy,68.75,161.3,32.81,87,4.83,94,RU,1601636255
Kirkwood,38.58,-90.41,46.99,75,5.12,1,US,1601636168
Vila Velha,-20.33,-40.29,79.0,69,12.75,4,BR,1601636257
La Flèche,47.7,-0.08,64.0,62,9.17,75,FR,1601636257
Ancud,-41.87,-73.82,39.99,86,6.93,4,CL,1601636258
Valparaíso,-33.04,-71.63,48.0,64,3.51,0,CL,1601636260
Ambon City,-3.7,128.18,80.6,83,6.93,75,ID,1601636261
Kavieng,-2.57,150.8,81.72,80,7.94,100,PG,1601636261
Puerto Ayacucho,5.66,-67.62,73.53,94,4.79,98,VE,1601636262
Cavalcante,-13.8,-47.46,81.34,33,8.16,48,BR,1601636054
Coolum Beach,-26.53,153.1,66.99,91,4.36,1,AU,1601636264
Leningradskiy,69.38,178.42,35.01,87,16.78,100,RU,1601636264
George Town,5.41,100.34,80.6,83,6.93,20,MY,1601636158
Cockburn Town,21.46,-71.14,83.62,78,20.98,52,TC,1601636266
Baharly,38.44,57.43,76.73,17,7.34,0,TM,1601636267
Bosaso,11.28,49.18,87.8,74,16.11,20,SO,1601636267
Tongling,30.95,117.78,74.19,73,4.61,89,CN,1601636268
Wajir,1.75,40.06,89.6,46,3.36,75,KE,1601636269
Farafenni,13.57,-15.6,84.94,74,10.02,46,GM,1601636270
Lamar,33.67,-95.58,50.0,81,8.05,1,US,1601636270
Pacific Grove,36.62,-121.92,62.6,67,4.38,90,US,1601636271
Tongliao,43.61,122.27,51.19,52,9.48,53,CN,1601636272
Hamilton,39.18,-84.53,45.0,93,5.82,1,US,1601636272
Chicama,-7.84,-79.15,60.94,86,3.42,59,PE,1601636273
Tiksi,71.69,128.87,26.02,93,20.2,51,RU,1601636274
Uray,60.12,64.78,58.69,67,8.59,37,RU,1601636274
São José de Ribamar,-2.56,-44.05,84.2,74,11.41,40,BR,1601636276
Luwuk,-0.95,122.79,78.69,79,5.55,40,ID,1601636276
Tangzhai,34.43,116.59,61.9,76,7.87,100,CN,1601636277
Torbay,47.67,-52.73,57.0,100,4.7,75,CA,1601636278
Ligayan,4.65,119.47,85.64,68,4.12,35,PH,1601636279
San Juan,-31.54,-68.54,49.87,45,5.97,0,AR,1601636279
Mattru,7.62,-11.83,82.67,78,1.77,99,SL,1601636281
Vestmanna,62.16,-7.17,57.2,71,23.04,40,FO,1601636282
Isiolo,0.35,37.58,88.48,28,17.18,16,KE,1601636282
Airai,-8.93,125.41,61.48,96,3.51,74,TL,1601636283
Tateyama,34.98,139.87,73.0,64,5.82,40,JP,1601636284
Sinnamary,5.38,-52.95,79.02,86,2.66,59,GF,1601636284
El Tocuyo,9.79,-69.79,69.76,76,4.76,95,VE,1601636285
Rio Grande,-32.03,-52.1,61.0,98,11.01,100,BR,1601636286
Old Orchard Beach,43.52,-70.38,55.0,93,3.36,75,US,1601636265
Kutoarjo,-7.72,109.91,79.56,80,6.6,47,ID,1601636287
Yuanping,38.72,112.76,54.39,40,1.21,0,CN,1601636288
Snezhnogorsk,69.19,33.25,46.4,75,6.71,75,RU,1601636289
Nabire,-3.37,135.48,79.68,80,1.79,52,ID,1601636107
Severnoye,56.35,78.36,54.55,81,7.2,70,RU,1601636290
Bonthe,7.53,-12.51,83.77,72,8.08,96,SL,1601636291
Frolovo,49.77,43.66,73.0,30,23.0,72,RU,1601636291
Port Pirie,-33.18,138.02,84.2,20,12.75,0,AU,1601636292
Saint-François,46.42,3.91,55.4,100,4.7,100,FR,1601636293
Ambulu,-8.35,113.61,79.12,83,5.03,54,ID,1601636293
Poso,-1.4,120.75,79.07,79,3.06,75,ID,1601636294
Khatanga,71.97,102.5,26.47,97,15.48,92,RU,1601636295
Boulder,40.08,-105.35,50.0,65,9.31,1,US,1601636295
Qinhuangdao,39.93,119.59,59.49,44,8.81,77,CN,1601636297
Provideniya,64.38,-173.3,39.06,90,14.97,98,RU,1601636297
Fox Lake,42.4,-88.18,41.0,93,1.99,0,US,1601636298
Bredasdorp,-34.53,20.04,55.4,93,13.87,100,ZA,1601636299
Buala,-8.14,159.59,79.93,80,8.66,14,SB,1601636300
New Norfolk,-42.78,147.06,60.8,51,12.75,40,AU,1601636300
Kapaa,22.08,-159.32,75.2,83,8.05,1,US,1601636301
Pasni,25.26,63.47,86.72,53,16.11,0,PK,1601636302
Tiarei,-17.53,-149.33,77.0,65,5.82,20,PF,1601636302
Moose Factory,51.26,-80.61,37.4,93,5.82,90,CA,1601636304
Magalia,39.81,-121.58,68.0,42,6.46,90,US,1601636304
Nishihara,26.18,127.76,82.4,65,13.87,20,JP,1601636305
Sharan,54.82,54.0,62.96,53,3.31,0,RU,1601636306
Nichinan,31.6,131.37,73.4,83,2.24,20,JP,1601636307
Hong Kong,22.29,114.16,82.99,72,1.01,4,HK,1601636290
Porosozero,62.72,32.73,56.57,67,5.08,46,RU,1601636309
Fukuechō,32.69,128.84,71.6,83,3.36,75,JP,1601636310
Laguna,38.42,-121.42,66.0,77,1.99,1,US,1601636311
Te Anau,-45.42,167.72,49.32,89,5.95,99,NZ,1601636311
Felanitx,39.47,3.15,78.8,69,21.92,20,ES,1601636312
Irawan,9.8,118.69,86.0,74,4.7,90,PH,1601636313
Caluquembe,-13.78,14.68,87.17,24,4.92,90,AO,1601636313
Mount Gambier,-37.83,140.77,69.8,49,9.17,6,AU,1601636243
Chumikan,54.72,135.31,48.42,80,10.89,100,RU,1601636315
Norman Wells,65.28,-126.83,30.2,100,3.36,20,CA,1601636316
Pevek,69.7,170.31,35.26,83,8.28,97,RU,1601636316
Pimampiro,0.4,-77.97,54.79,60,6.22,47,EC,1601636317
Shingū,33.73,135.98,71.6,78,2.24,20,JP,1601636318
Ponta do Sol,32.67,-17.1,75.0,60,11.41,40,PT,1601636318
Lorica,9.24,-75.81,74.44,93,3.29,88,CO,1601636319
Bathsheba,13.22,-59.52,82.4,78,19.46,40,BB,1601636320
Nouadhibou,20.93,-17.03,75.2,69,27.51,0,MR,1601636321
Belyy Yar,53.6,91.39,44.6,52,2.24,68,RU,1601636321
Saint-Leu,-21.15,55.28,77.0,73,9.17,90,RE,1601636322
Hermanus,-34.42,19.23,55.0,90,5.99,100,ZA,1601636049
Sangar,63.92,127.47,30.74,90,3.2,28,RU,1601636323
Province of Trapani,37.83,12.67,80.6,47,14.99,0,IT,1601636324
Grand Island,40.92,-98.34,39.2,69,4.7,1,US,1601636046
São Gabriel da Cachoeira,-0.13,-67.09,73.38,95,1.52,99,BR,1601636325
Olinda,-8.01,-34.86,78.8,74,13.87,75,BR,1601636326
Fort Nelson,58.81,-122.7,39.2,86,3.36,5,CA,1601636327
Ixtapa,20.7,-105.2,78.01,90,4.25,9,MX,1601636328
Maningrida,-12.07,134.27,81.66,57,11.5,31,AU,1601636328
Salalah,17.02,54.09,84.2,58,10.29,13,OM,1601636329
Huarmey,-10.07,-78.15,60.98,86,5.19,43,PE,1601636330
Jérémie,18.65,-74.12,79.77,75,2.8,58,HT,1601636331
Yerbogachën,61.28,108.01,28.98,92,5.12,76,RU,1601636331
Gigmoto,13.78,124.39,81.48,80,7.16,100,PH,1601636332
Myaundzha,63.05,147.19,29.88,88,1.74,5,RU,1601636333
Borzya,50.38,116.52,40.01,88,9.37,99,RU,1601636334
Aksarka,66.56,67.8,48.99,75,14.18,96,RU,1601636336
Chapais,49.78,-74.85,32.0,93,4.7,90,CA,1601636337
Raton,36.9,-104.44,42.8,56,6.93,1,US,1601636337
Ukiah,39.15,-123.21,66.99,67,2.53,75,US,1601636338
Pitimbu,-7.47,-34.81,78.8,88,8.05,75,BR,1601636338
Magdagachi,53.45,125.8,44.1,88,6.11,100,RU,1601636339
Yeniseysk,58.45,92.17,39.09,76,3.69,97,RU,1601636340
Naze,28.37,129.48,78.8,74,11.41,20,JP,1601636341
Dicabisagan,17.08,122.42,79.32,84,6.64,66,PH,1601636342
Witu,-2.39,40.44,86.0,62,12.75,1,KE,1601636343
Zacatepec,18.65,-99.2,62.01,87,1.25,37,MX,1601636343
Emmett,43.87,-116.5,59.0,87,3.36,1,US,1601636344
Russell,32.35,-85.2,55.4,93,3.36,1,US,1601636345
Wilkie,52.42,-108.7,32.0,74,3.36,1,CA,1601636345
Meulaboh,4.14,96.13,77.56,84,5.84,100,ID,1601636346
Malindi,-3.22,40.12,86.0,66,13.87,40,KE,1601636347
Fortuna,40.6,-124.16,61.0,100,1.83,90,US,1601636348
Bandarbeyla,9.49,50.81,80.76,75,17.63,20,SO,1601636349
Konya Province,38.17,32.5,71.6,33,4.7,0,TR,1601636350
Nizhneudinsk,54.91,99.03,31.12,94,1.72,73,RU,1601636350
Tripoli,32.88,13.19,85.19,49,8.16,46,LY,1601636351
Butembo,0.15,29.28,73.72,64,3.4,6,CD,1601636352
Rome,43.21,-75.46,46.99,87,3.36,1,US,1601636165
The Pas,53.83,-101.25,41.0,75,5.82,90,CA,1601636353
Moses Lake,47.13,-119.28,62.6,76,4.7,1,US,1601636354
Sibu,2.3,111.82,80.6,83,3.36,40,MY,1601636355
Santa Cruz de La Palma,28.68,-17.76,78.8,54,16.11,75,ES,1601636355
Kampene,-3.6,26.67,85.55,57,1.16,22,CD,1601636356
Tiznit Province,29.58,-9.5,69.71,64,7.4,25,MA,1601636357
Jiangyan,32.51,120.14,71.56,79,11.43,100,CN,1601636357
Cabo San Lucas,22.89,-109.91,78.01,78,1.01,1,MX,1601636358
Preslav,43.17,26.82,78.19,27,10.22,25,BG,1601636359
Tarrafal,15.28,-23.77,82.4,74,16.11,75,CV,1601636360
Nyangao,-10.33,39.28,98.78,23,6.46,15,TZ,1601636361
Esim,4.87,-2.24,80.73,74,8.52,38,GH,1601636362
Constitución,-35.33,-72.42,44.38,74,6.11,0,CL,1601636362
Muros,42.78,-9.06,55.99,78,5.99,75,ES,1601636363
Panalingaan,8.78,117.42,81.93,78,3.71,81,PH,1601636364
Minsk,53.9,27.57,59.0,58,17.9,75,BY,1601636338
Ilulissat,69.22,-51.1,39.2,51,11.41,75,GL,1601636366
Okhotsk,59.38,143.3,44.73,75,3.69,0,RU,1601636367
Nelson Bay,-32.72,152.15,64.99,82,8.05,0,AU,1601636368
St. George's,12.06,-61.75,84.2,74,16.11,75,GD,1601636369
Tabory,58.52,64.55,59.95,65,6.76,4,RU,1601636371
Plettenberg Bay,-34.05,23.37,60.03,72,18.5,99,ZA,1601636372
Bubaque,11.28,-15.83,81.73,76,9.22,63,GW,1601636373
Davenport,41.52,-90.58,44.6,81,3.36,1,US,1601636373
Nanortalik,60.14,-45.24,37.33,92,9.13,100,GL,1601636374
Kundiawa,-6.02,144.97,64.83,81,1.43,100,PG,1601636375
Dondo,-19.61,34.74,82.4,69,16.11,40,MZ,1601636376
Pisco,-13.7,-76.22,61.0,87,9.17,0,PE,1601636377
Bud,39.45,-86.18,42.01,100,5.37,1,US,1601636377
Gemeente Hoogeveen,52.68,6.58,61.0,80,4.0,94,NL,1601636378
Raja,8.46,25.68,85.59,71,2.93,5,SS,1601636380
Anadyr,64.75,177.48,37.4,86,2.24,40,RU,1601636380
Zhoucheng,35.91,116.31,65.66,32,3.87,100,CN,1601636381
Venâncio Aires,-29.61,-52.19,71.01,93,4.0,78,BR,1601636382
Oranjestad,12.52,-70.03,82.4,83,6.93,20,AW,1601636351
Mar del Plata,-38.0,-57.56,48.0,65,5.82,20,AR,1601636251
San Jerónimo,-11.95,-75.28,46.27,69,1.59,44,PE,1601636384
Carauari,-4.88,-66.9,72.55,88,1.12,100,BR,1601636384
Newburgh,41.5,-74.01,54.0,100,2.48,75,US,1601636385
Portland,45.52,-122.68,60.01,93,1.86,90,US,1601635505
Puerto Nariño,-3.77,-70.38,73.4,100,0.92,75,CO,1601636387
Santa Fe,-31.63,-60.7,59.0,64,8.99,2,AR,1601636214
Praia,14.92,-23.51,82.4,74,16.11,75,CV,1601636388
Roald,62.58,6.13,63.0,48,17.22,75,NO,1601636389
Pestovo,58.59,35.8,63.37,50,6.06,84,RU,1601636390
Amapá,1.0,-52.0,75.52,91,1.79,80,BR,1601636391
Luanda,-8.84,13.23,80.6,61,6.93,75,AO,1601636393
La Ronge,55.1,-105.28,37.4,86,3.76,90,CA,1601636394
Jarocin,51.97,17.5,64.0,76,1.01,86,PL,1601636359
Cayenne,4.93,-52.33,75.2,100,2.24,91,GF,1601636396
Kirakira,-10.45,161.92,78.21,77,6.73,91,SB,1601636396
Tūkrah,32.53,20.58,91.45,29,11.86,77,LY,1601636397
Bairiki Village,1.33,172.98,80.6,69,10.29,20,KI,1601636398
Kasane,-17.82,25.15,93.2,23,12.75,17,BW,1601636399
Datong,40.09,113.29,53.04,39,6.55,0,CN,1601636399
Cabedelo,-6.98,-34.83,78.8,88,8.05,75,BR,1601636400
Wooster,40.81,-81.94,46.99,95,10.83,31,US,1601636401
Coahuayana Viejo,18.73,-103.68,74.73,82,3.94,44,MX,1601636402
Lincoln,40.8,-96.67,37.99,80,2.86,1,US,1601636209
Paamiut,61.99,-49.67,40.12,90,25.75,100,GL,1601636405
Yarmouth,41.71,-70.23,60.8,100,2.8,40,US,1601636293
Leninsk,48.71,45.2,71.6,26,24.61,92,RU,1601636409
Marrakesh,31.63,-8.01,69.8,60,6.93,20,MA,1601636409
Manadhoo,5.77,73.38,82.49,74,11.88,20,MV,1601636413
Moerai,-22.43,-151.33,75.11,86,15.93,18,PF,1601636413
Makokou,0.57,12.86,83.5,64,3.58,79,GA,1601636415
Marsá Maţrūḩ,31.35,27.25,80.6,54,8.05,0,EG,1601636416
Sabang,5.89,95.32,82.96,77,19.64,75,ID,1601636417
Shimoda,34.67,138.95,62.01,87,5.35,34,JP,1601636418
Atasū,48.68,71.64,55.62,44,13.98,16,KZ,1601636419
Zagoryanskiy,55.93,37.96,68.0,42,11.18,89,RU,1601636420
Pauini,-7.71,-66.98,73.15,96,1.54,29,BR,1601636421
Banamba,13.55,-7.45,81.12,76,9.15,96,ML,1601636422
Sola,-13.88,167.55,79.84,82,11.86,50,VU,1601636423
‘Ewa Beach,21.32,-158.01,78.8,78,4.05,1,US,1601636424
Souillac,-20.52,57.52,78.8,65,6.93,75,MU,1601636426
Aykhal,66.0,111.5,28.4,74,11.18,90,RU,1601636427
Pendra,22.77,81.95,81.32,58,8.43,62,IN,1601636428
San Antonio,29.42,-98.49,66.99,63,8.05,1,US,1601636268
Dingle,11.0,122.67,79.56,86,1.25,74,PH,1601636430
Homer,59.64,-151.55,52.0,68,35.99,96,US,1601636431
Lauda-Königshofen,49.57,9.7,64.99,72,21.92,75,DE,1601636432
Kushiro,42.98,144.37,55.4,93,4.7,75,JP,1601636434
Pierre,44.37,-100.35,41.0,68,3.36,1,US,1601636435
Stornoway,58.21,-6.39,55.0,93,24.16,40,GB,1601636436
Zorritos,-3.68,-80.68,68.31,76,5.23,33,PE,1601636437
Hasaki,35.73,140.83,64.4,93,3.36,20,JP,1601636438
Manado,1.49,124.85,77.0,94,1.12,40,ID,1601636341
Macon,39.87,-88.97,44.6,93,8.05,1,US,1601636440
Sisophon,13.59,102.97,82.42,82,7.23,100,KH,1601636441
Kandrian,-6.22,149.55,74.62,88,2.53,100,PG,1601636443
Fairbanks,64.84,-147.72,53.6,64,11.41,90,US,1601636319
Bariloche,-41.15,-71.31,30.99,74,13.87,90,AR,1601636216
Monduli,-3.3,36.45,80.6,44,11.41,40,TZ,1601636445
At-Bashi,41.17,75.81,45.64,58,5.21,100,KG,1601636375
Belmonte,-15.86,-38.88,69.8,94,3.36,75,BR,1601636449
Lagoa,39.05,-27.98,69.15,83,16.04,100,PT,1601636450
Sobolevo,54.43,31.9,61.5,52,15.12,85,RU,1601636451
Zeya,53.75,127.27,45.77,81,5.53,100,RU,1601636453
Gubkinskiy,64.43,76.5,46.47,90,10.47,100,RU,1601636454
Broome,42.25,-75.83,48.99,93,1.86,90,US,1601636455
Grindavik,63.84,-22.43,41.0,93,14.99,75,IS,1601636456
Sikasso,10.92,-7.0,70.9,95,2.93,100,ML,1601636457
Neftekamsk,56.09,54.27,63.43,61,4.81,1,RU,1601636460
Puerto Palomas,31.77,-107.62,55.4,32,8.05,1,MX,1601636461
Sargatskoye,55.61,73.5,60.24,53,7.09,0,RU,1601636462
Chute-aux-Outardes,49.12,-68.4,44.6,93,2.24,90,CA,1601636463
Sistranda,63.73,8.83,59.0,58,18.34,26,NO,1601636464
Ghiror,27.18,78.8,96.44,22,5.7,0,IN,1601636465
Contamana,-7.33,-75.02,68.29,94,0.98,39,PE,1601636466
Raudeberg,61.99,5.14,64.0,55,6.42,85,NO,1601636467
Urucará,-2.54,-57.76,77.68,87,3.09,69,BR,1601636468
Asău,46.43,26.4,64.0,73,7.83,87,RO,1601636469
Beloha,-25.17,45.05,86.4,31,15.52,32,MG,1601636469
Port Lincoln,-34.73,135.87,72.99,40,14.85,3,AU,1601636470
Newton,42.34,-71.21,59.0,87,3.36,73,US,1601636348
Galle,6.04,80.22,82.22,76,13.4,32,LK,1601636201
Kruisfontein,-34.0,24.73,63.0,66,11.01,100,ZA,1601636472
Caraz,-9.05,-77.81,59.14,54,5.53,21,PE,1601636349
Los Llanos de Aridane,28.66,-17.92,78.8,54,16.11,75,ES,1601636474
Bambous Virieux,-20.34,57.76,78.8,65,6.93,75,MU,1601636475
Fujin,47.26,132.03,49.5,93,10.71,100,CN,1601636476
Devrek,41.22,31.96,79.65,27,7.7,0,TR,1601636477
Thompson,55.74,-97.86,32.0,93,1.97,75,CA,1601636411
Tamale,9.4,-0.84,82.0,75,6.22,59,GH,1601636185
Yārāda,17.65,83.27,87.8,62,2.24,90,IN,1601636479
Starokostiantyniv,49.76,27.2,63.91,60,9.19,63,UA,1601636481
Saint-Augustin,51.23,-58.65,49.8,86,4.38,0,CA,1601636482
Korla,41.76,86.15,66.67,22,3.49,31,CN,1601636482
Bintulu,3.17,113.03,86.0,79,6.93,20,MY,1601636483
Kutum,14.2,24.67,88.84,23,6.85,5,SD,1601636484
Dotnuva,55.35,23.9,60.8,67,11.41,99,LT,1601636485
Zabul Province,32.25,67.25,74.55,17,22.84,0,AF,1601636485
Qaqortoq,60.72,-46.03,35.6,99,11.9,75,GL,1601636486
Blackwater,-23.58,148.88,73.42,50,10.31,0,AU,1601636487
Arlit,18.74,7.39,99.55,24,12.26,2,NE,1601636488
Berdigestyakh,62.1,126.7,29.73,90,2.44,69,RU,1601636488
Senno,59.53,33.92,62.91,54,7.2,69,RU,1601636489
Scarborough,54.28,-0.4,57.0,83,5.01,92,GB,1601636419
Morros,-9.45,-46.3,80.1,28,10.74,56,BR,1601636490
Bahía Honda,22.9,-83.16,74.17,89,8.55,100,CU,1601636491
Mitsamiouli,-11.38,43.28,79.2,77,5.39,30,KM,1601636492
Narsaq,60.92,-46.05,35.6,93,7.65,75,GL,1601636492
São Domingos,-13.4,-46.32,80.96,41,11.43,36,BR,1601636494
Caxias,38.7,-9.28,66.99,82,19.46,75,PT,1601636494
Pangnirtung,66.15,-65.71,23.14,84,5.48,0,CA,1601636495
Najrān,17.49,44.13,91.4,16,16.11,0,SA,1601636496
Englehart,47.82,-79.87,37.4,86,5.82,90,CA,1601636497
Malé,4.17,73.51,87.8,70,12.75,75,MV,1601636497
Biak,-0.91,122.88,78.17,81,6.22,47,ID,1601636498
Hengshui,37.73,115.7,61.92,30,5.14,97,CN,1601636401
Sokoto,13.06,5.24,90.64,47,7.45,3,NG,1601636500
Pumiao,22.75,108.48,82.4,83,4.47,40,CN,1601636501
Luan,46.36,6.98,62.6,63,3.36,75,CH,1601636501
Ures,29.43,-110.4,77.0,81,1.99,0,MX,1601636502
Kaabong,3.48,34.15,80.11,45,10.74,32,UG,1601636503
Oranjemund,-28.55,16.43,61.84,63,13.85,2,NA,1601636504
Aasiaat,68.71,-52.87,27.21,91,5.32,58,GL,1601636505
Aytos,42.7,27.25,77.0,44,8.05,20,BG,1601636506
Sergeevka,53.88,67.42,61.59,53,6.64,22,KZ,1601636508
Ndago,-4.6,34.35,90.43,17,11.92,18,TZ,1601636508
Cefalù,38.04,14.02,78.01,55,1.99,0,IT,1601636509
Namatanai,-3.67,152.43,79.09,80,5.06,100,PG,1601636510
Aden,12.78,45.04,85.64,73,14.47,15,YE,1601636461
Sarkand,45.41,79.92,60.53,31,6.4,0,KZ,1601636511
Aklavik,68.22,-135.01,37.4,93,2.24,20,CA,1601636512
Afşin,38.25,36.91,76.15,19,6.46,0,TR,1601636513
Katsuura,35.13,140.3,71.6,64,5.82,40,JP,1601636514
Diffa,13.32,12.61,96.42,32,11.52,12,NE,1601636515
Boende,-0.22,20.87,76.15,88,1.05,98,CD,1601636515
Adelaide,-34.93,138.6,80.6,28,16.11,0,AU,1601636253
Camiri,-20.05,-63.52,71.76,50,0.69,0,BO,1601636517
Auki,-8.77,160.7,76.68,86,5.46,19,SB,1601636518
Ibiá,-19.48,-46.54,80.46,38,5.48,35,BR,1601636519
Marabba,12.35,32.18,94.68,35,9.13,53,SD,1601636521
Poum,-20.23,164.02,71.58,72,23.96,45,NC,1601636522
Kommunar,59.62,30.39,64.0,48,11.18,3,RU,1601636523
Chemal,51.41,86.0,45.9,60,4.34,0,RU,1601636524
Tawao,4.25,117.89,84.2,83,6.13,20,MY,1601636525
Hobyo,5.35,48.53,82.74,69,18.61,66,SO,1601636526
Dagda,56.1,27.54,59.99,54,10.87,75,LV,1601636228
Manokwari,-0.87,134.08,80.96,77,1.61,91,ID,1601636528
Llangefni,53.26,-4.31,55.0,76,16.11,75,GB,1601636529
Hohhot,40.81,111.65,53.6,34,4.47,20,CN,1601636529
Paita,-5.09,-81.11,62.22,86,11.03,65,PE,1601636530
Necochea,-38.55,-58.74,46.99,70,8.01,3,AR,1601636531
Nizhniy Kuranakh,58.84,125.49,35.91,85,4.63,100,RU,1601636531
Silver City,32.77,-108.28,48.2,34,8.05,90,US,1601636532
Polunochnoye,60.87,60.42,54.93,71,9.13,82,RU,1601636533
Troy,42.61,-83.15,41.0,89,3.0,7,US,1601636375
Jasper,37.2,-94.35,41.0,93,1.61,1,US,1601636534
Zhigansk,66.77,123.37,30.65,91,18.39,66,RU,1601636535
High Level,58.52,-117.14,50.0,66,11.41,1,CA,1601636536
Haines Junction,60.75,-137.51,39.18,81,2.26,100,CA,1601636538
Marihatag,8.79,126.3,81.39,77,2.19,72,PH,1601636539
Lysa Hora,48.17,31.11,68.97,52,10.42,16,UA,1601636540
Kiama,-34.68,150.87,66.0,68,5.01,0,AU,1601636540
San Jose,37.34,-121.89,73.99,52,3.36,1,US,1601636401
Laibin,23.7,109.27,82.22,77,9.75,69,CN,1601636542
Camaná,-16.62,-72.71,61.18,79,8.55,95,PE,1601636542
Lawton,34.61,-98.39,50.0,57,4.27,1,US,1601636543
Farmington,36.73,-108.22,48.2,21,8.28,1,US,1601636544
Bacabal,-4.29,-44.79,81.79,69,7.92,55,BR,1601636545
Piaçabuçu,-10.41,-36.43,79.72,66,12.26,80,BR,1601636546
Mujiayingzi,42.12,118.78,49.86,47,9.53,38,CN,1601636547
Khovd,48.01,91.64,37.67,69,4.38,75,MN,1601636548
Slave Lake,55.28,-114.77,44.6,87,5.82,1,CA,1601636412
Huntsville,34.73,-86.59,51.01,81,5.82,1,US,1601636407
Nuristan,35.3,70.83,43.72,56,8.32,30,AF,1601636550
Douglas,41.3,-96.17,39.2,78,4.7,1,US,1601636551
Port Hardy,50.7,-127.42,50.0,100,2.24,90,CA,1601636551
Santa Maria,-29.68,-53.81,70.74,90,12.19,100,BR,1601636330
La Palma,33.85,-118.05,71.6,73,1.83,1,US,1601636553
Olafsvik,64.89,-23.71,44.11,79,20.51,100,IS,1601636553
Jacareacanga,-6.22,-57.75,74.07,91,2.3,97,BR,1601636554
Hvide Sande,56.0,8.13,63.0,93,12.75,75,DK,1601636555
Husavik,66.04,-17.34,24.8,85,3.36,100,IS,1601636555
Upington,-28.45,21.26,62.6,24,5.82,0,ZA,1601636556
